$GPGGA,205512.000,3648.6599,N,12146.8654,W,2,12,0.4,-1.9,M,-30.6,M,,0000,M,,0000
$GPGGA,205517.000,3648.6598,N,12146.8670,W,2,12,0.4,-1.7,M,-30.6,M,,0000,M,,0000
$GPGGA,205522.000,3648.6601,N,12146.8680,W,2,12,0.4,-1.9,M,-30.6,M,,0000,M,,0000
$GPGGA,205526.000,3648.6605,N,12146.8683,W,2,12,0.5,-1.9,M,-30.6,M,,0000,M,,0000
$GPGGA,205532.000,3648.6611,N,12146.8686,W,2,12,0.5,-1.8,M,-30.6,M,,0000,M,,0000
$GPGGA,205537.000,3648.6615,N,12146.8688,W,2,12,0.5,-2.0,M,-30.6,M,,0000,M,,0000
$GPGGA,205542.000,3648.6618,N,12146.8686,W,2,11,0.5,-2.5,M,-30.6,M,,0000,M,,0000
$GPGGA,205547.000,3648.6621,N,12146.8688,W,2,12,0.4,-2.5,M,-30.6,M,,0000,M,,0000
$GPGGA,205552.000,3648.6624,N,12146.8686,W,2,12,0.5,-2.4,M,-30.6,M,,0000,M,,0000
$GPGGA,205557.000,3648.6627,N,12146.8684,W,2,11,0.5,-2.3,M,-30.6,M,,0000,M,,0000
$GPGGA,205602.000,3648.6630,N,12146.8682,W,2,12,0.4,-2.3,M,-30.6,M,,0000,M,,0000
$GPGGA,205607.000,3648.6632,N,12146.8681,W,2,12,0.5,-2.4,M,-30.6,M,,0000,M,,0000
$GPGGA,205612.000,3648.6635,N,12146.8680,W,2,12,0.5,-2.2,M,-30.6,M,,0000,M,,0000
$GPGGA,205617.000,3648.6637,N,12146.8678,W,2,12,0.4,-2.2,M,-30.6,M,,0000,M,,0000
$GPGGA,205622.000,3648.6641,N,12146.8679,W,2,12,0.5,-2.4,M,-30.6,M,,0000,M,,0000
$GPGGA,205627.000,3648.6644,N,12146.8679,W,2,11,0.5,-2.5,M,-30.6,M,,0000,M,,0000
$GPGGA,205632.000,3648.6647,N,12146.8680,W,2,11,0.5,-2.6,M,-30.6,M,,0000,M,,0000
$GPGGA,205637.000,3648.6650,N,12146.8680,W,2,12,0.4,-2.4,M,-30.6,M,,0000,M,,0000
$GPGGA,205642.000,3648.6654,N,12146.8681,W,2,11,0.4,-2.2,M,-30.6,M,,0000,M,,0000
$GPGGA,205647.000,3648.6657,N,12146.8681,W,2,12,0.4,-2.1,M,-30.6,M,,0000,M,,0000
$GPGGA,205652.000,3648.6660,N,12146.8680,W,2,12,0.4,-2.2,M,-30.6,M,,0000,M,,0000
$GPGGA,205657.000,3648.6664,N,12146.8680,W,2,12,0.4,-2.1,M,-30.6,M,,0000,M,,0000
$GPGGA,205702.000,3648.6667,N,12146.8680,W,2,12,0.4,-2.1,M,-30.6,M,,0000,M,,0000
$GPGGA,205707.000,3648.6671,N,12146.8680,W,2,12,0.4,-2.3,M,-30.6,M,,0000,M,,0000
$GPGGA,205712.000,3648.6675,N,12146.8680,W,2,11,0.5,-2.6,M,-30.6,M,,0000,M,,0000
$GPGGA,205717.000,3648.6679,N,12146.8679,W,2,12,0.5,-2.7,M,-30.6,M,,0000,M,,0000
$GPGGA,205722.000,3648.6683,N,12146.8678,W,2,12,0.5,-2.9,M,-30.6,M,,0000,M,,0000
$GPGGA,205727.000,3648.6687,N,12146.8680,W,2,12,0.4,-2.6,M,-30.6,M,,0000,M,,0000
$GPGGA,205732.000,3648.6693,N,12146.8682,W,2,12,0.4,-2.7,M,-30.6,M,,0000,M,,0000
$GPGGA,205737.000,3648.6697,N,12146.8683,W,2,12,0.4,-2.7,M,-30.6,M,,0000,M,,0000
$GPGGA,205742.000,3648.6701,N,12146.8685,W,2,12,0.4,-2.7,M,-30.6,M,,0000,M,,0000
$GPGGA,205747.000,3648.6705,N,12146.8687,W,2,12,0.4,-2.7,M,-30.6,M,,0000,M,,0000
$GPGGA,205752.000,3648.6709,N,12146.8689,W,2,12,0.4,-2.7,M,-30.6,M,,0000,M,,0000
$GPGGA,205757.000,3648.6713,N,12146.8690,W,2,12,0.4,-2.7,M,-30.6,M,,0000,M,,0000
$GPGGA,205802.000,3648.6716,N,12146.8691,W,2,11,0.5,-2.8,M,-30.6,M,,0000,M,,0000
$GPGGA,205807.000,3648.6720,N,12146.8689,W,2,12,0.4,-3.3,M,-30.6,M,,0000,M,,0000
$GPGGA,205812.000,3648.6724,N,12146.8689,W,2,11,0.5,-3.6,M,-30.6,M,,0000,M,,0000
$GPGGA,205817.000,3648.6728,N,12146.8688,W,2,11,0.5,-3.5,M,-30.6,M,,0000,M,,0000
$GPGGA,205822.000,3648.6732,N,12146.8688,W,2,12,0.4,-3.3,M,-30.6,M,,0000,M,,0000
$GPGGA,205827.000,3648.6735,N,12146.8688,W,2,12,0.4,-3.3,M,-30.6,M,,0000,M,,0000
$GPGGA,205832.000,3648.6738,N,12146.8688,W,2,12,0.4,-3.1,M,-30.6,M,,0000,M,,0000
$GPGGA,205837.000,3648.6743,N,12146.8688,W,2,12,0.4,-2.9,M,-30.6,M,,0000,M,,0000
$GPGGA,205842.000,3648.6748,N,12146.8690,W,2,12,0.4,-2.8,M,-30.6,M,,0000,M,,0000
$GPGGA,205847.000,3648.6752,N,12146.8691,W,2,12,0.4,-2.3,M,-30.6,M,,0000,M,,0000
$GPGGA,205852.000,3648.6755,N,12146.8691,W,2,12,0.4,-2.0,M,-30.6,M,,0000,M,,0000
$GPGGA,205857.000,3648.6758,N,12146.8692,W,2,11,0.4,-1.7,M,-30.6,M,,0000,M,,0000
$GPGGA,205902.000,3648.6761,N,12146.8692,W,2,10,0.5,-1.9,M,-30.6,M,,0000,M,,0000
$GPGGA,205907.000,3648.6765,N,12146.8693,W,2,12,0.4,-2.6,M,-30.6,M,,0000,M,,0000
$GPGGA,205912.000,3648.6768,N,12146.8696,W,2,12,0.5,-2.6,M,-30.6,M,,0000,M,,0000
$GPGGA,205917.000,3648.6771,N,12146.8698,W,2,12,0.4,-2.7,M,-30.6,M,,0000,M,,0000
$GPGGA,205922.000,3648.6775,N,12146.8702,W,2,12,0.4,-2.7,M,-30.6,M,,0000,M,,0000
$GPGGA,205927.000,3648.6778,N,12146.8706,W,2,12,0.4,-2.7,M,-30.6,M,,0000,M,,0000
$GPGGA,205933.000,3648.6782,N,12146.8710,W,2,12,0.4,-2.8,M,-30.6,M,,0000,M,,0000
$GPGGA,205937.000,3648.6785,N,12146.8714,W,2,12,0.4,-2.8,M,-30.6,M,,0000,M,,0000
$GPGGA,205942.000,3648.6788,N,12146.8716,W,2,12,0.4,-2.6,M,-30.6,M,,0000,M,,0000
$GPGGA,205947.000,3648.6791,N,12146.8719,W,2,12,0.4,-2.5,M,-30.6,M,,0000,M,,0000
$GPGGA,205952.000,3648.6794,N,12146.8721,W,2,12,0.4,-2.8,M,-30.6,M,,0000,M,,0000
$GPGGA,205957.000,3648.6798,N,12146.8723,W,2,12,0.4,-2.9,M,-30.6,M,,0000,M,,0000
$GPGGA,210002.000,3648.6803,N,12146.8726,W,2,12,0.4,-2.7,M,-30.6,M,,0000,M,,0000
$GPGGA,210007.000,3648.6807,N,12146.8729,W,2,12,0.4,-2.5,M,-30.6,M,,0000,M,,0000
$GPGGA,210012.000,3648.6810,N,12146.8731,W,2,12,0.4,-2.2,M,-30.6,M,,0000,M,,0000
$GPGGA,210017.000,3648.6815,N,12146.8733,W,2,12,0.4,-2.2,M,-30.6,M,,0000,M,,0000
$GPGGA,210022.000,3648.6820,N,12146.8736,W,2,12,0.4,-2.5,M,-30.6,M,,0000,M,,0000
$GPGGA,210027.000,3648.6824,N,12146.8737,W,2,12,0.4,-2.7,M,-30.6,M,,0000,M,,0000
$GPGGA,210032.000,3648.6827,N,12146.8739,W,2,12,0.5,-2.9,M,-30.6,M,,0000,M,,0000
$GPGGA,210037.000,3648.6831,N,12146.8741,W,2,12,0.4,-3.3,M,-30.6,M,,0000,M,,0000
$GPGGA,210042.000,3648.6835,N,12146.8743,W,2,12,0.4,-3.3,M,-30.6,M,,0000,M,,0000
$GPGGA,210047.000,3648.6839,N,12146.8744,W,2,12,0.4,-3.6,M,-30.6,M,,0000,M,,0000
$GPGGA,210052.000,3648.6842,N,12146.8745,W,2,12,0.4,-3.5,M,-30.6,M,,0000,M,,0000
$GPGGA,210057.000,3648.6845,N,12146.8745,W,2,12,0.4,-3.3,M,-30.6,M,,0000,M,,0000
$GPGGA,210102.000,3648.6848,N,12146.8746,W,2,12,0.4,-3.1,M,-30.6,M,,0000,M,,0000
$GPGGA,210107.000,3648.6851,N,12146.8748,W,2,12,0.4,-3.0,M,-30.6,M,,0000,M,,0000
$GPGGA,210112.000,3648.6855,N,12146.8749,W,2,12,0.4,-2.9,M,-30.6,M,,0000,M,,0000
$GPGGA,210117.000,3648.6857,N,12146.8748,W,2,12,0.4,-2.9,M,-30.6,M,,0000,M,,0000
$GPGGA,210122.000,3648.6860,N,12146.8748,W,2,12,0.4,-2.6,M,-30.6,M,,0000,M,,0000
$GPGGA,210127.000,3648.6865,N,12146.8748,W,2,12,0.4,-2.1,M,-30.6,M,,0000,M,,0000
$GPGGA,210132.000,3648.6870,N,12146.8750,W,2,12,0.4,-2.2,M,-30.6,M,,0000,M,,0000
$GPGGA,210137.000,3648.6874,N,12146.8752,W,2,12,0.4,-2.4,M,-30.6,M,,0000,M,,0000
$GPGGA,210142.000,3648.6879,N,12146.8753,W,2,12,0.4,-2.7,M,-30.6,M,,0000,M,,0000
$GPGGA,210147.000,3648.6883,N,12146.8753,W,2,12,0.4,-3.0,M,-30.6,M,,0000,M,,0000
$GPGGA,210151.000,3648.6886,N,12146.8754,W,2,12,0.4,-3.0,M,-30.6,M,,0000,M,,0000
$GPGGA,210157.000,3648.6891,N,12146.8758,W,2,12,0.4,-3.2,M,-30.6,M,,0000,M,,0000
$GPGGA,210202.000,3648.6895,N,12146.8762,W,2,11,0.5,-3.3,M,-30.6,M,,0000,M,,0000
$GPGGA,210207.000,3648.6899,N,12146.8764,W,2,12,0.5,-3.5,M,-30.6,M,,0000,M,,0000
$GPGGA,210212.000,3648.6905,N,12146.8770,W,2,12,0.4,-3.5,M,-30.6,M,,0000,M,,0000
$GPGGA,210217.000,3648.6910,N,12146.8775,W,2,12,0.4,-3.4,M,-30.6,M,,0000,M,,0000
$GPGGA,210222.000,3648.6914,N,12146.8780,W,2,12,0.4,-3.6,M,-30.6,M,,0000,M,,0000
$GPGGA,210227.000,3648.6920,N,12146.8786,W,2,11,0.4,-3.6,M,-30.6,M,,0000,M,,0000
$GPGGA,210232.000,3648.6925,N,12146.8790,W,2,11,0.4,-3.3,M,-30.6,M,,0000,M,,0000
$GPGGA,210237.000,3648.6929,N,12146.8794,W,2,11,0.4,-3.2,M,-30.6,M,,0000,M,,0000
$GPGGA,210241.000,3648.6933,N,12146.8796,W,2,11,0.4,-3.4,M,-30.6,M,,0000,M,,0000
$GPGGA,210247.000,3648.6938,N,12146.8799,W,2,11,0.4,-3.4,M,-30.6,M,,0000,M,,0000
$GPGGA,210252.000,3648.6943,N,12146.8802,W,2,11,0.4,-3.5,M,-30.6,M,,0000,M,,0000
$GPGGA,210257.000,3648.6947,N,12146.8806,W,2,11,0.4,-3.3,M,-30.6,M,,0000,M,,0000
$GPGGA,210302.000,3648.6952,N,12146.8808,W,2,10,0.5,-3.1,M,-30.6,M,,0000,M,,0000
$GPGGA,210307.000,3648.6956,N,12146.8811,W,2,11,0.4,-3.2,M,-30.6,M,,0000,M,,0000
$GPGGA,210312.000,3648.6960,N,12146.8816,W,2,11,0.4,-3.2,M,-30.6,M,,0000,M,,0000
$GPGGA,210317.000,3648.6965,N,12146.8820,W,2,11,0.4,-3.3,M,-30.6,M,,0000,M,,0000
$GPGGA,210321.000,3648.6969,N,12146.8822,W,2,11,0.4,-3.2,M,-30.6,M,,0000,M,,0000
$GPGGA,210327.000,3648.6976,N,12146.8825,W,2,11,0.4,-3.0,M,-30.6,M,,0000,M,,0000
$GPGGA,210332.000,3648.6980,N,12146.8828,W,2,11,0.4,-3.0,M,-30.6,M,,0000,M,,0000
$GPGGA,210337.000,3648.6985,N,12146.8833,W,2,11,0.4,-2.8,M,-30.6,M,,0000,M,,0000
$GPGGA,210342.000,3648.6989,N,12146.8836,W,2,11,0.5,-2.5,M,-30.6,M,,0000,M,,0000
$GPGGA,210347.000,3648.6994,N,12146.8839,W,2,11,0.4,-2.3,M,-30.6,M,,0000,M,,0000
$GPGGA,210352.000,3648.7000,N,12146.8843,W,2,11,0.4,-2.3,M,-30.6,M,,0000,M,,0000
$GPGGA,210357.000,3648.7005,N,12146.8844,W,2,11,0.4,-2.2,M,-30.6,M,,0000,M,,0000
$GPGGA,210402.000,3648.7010,N,12146.8846,W,2,11,0.4,-2.1,M,-30.6,M,,0000,M,,0000
$GPGGA,210407.000,3648.7015,N,12146.8849,W,2,11,0.4,-2.3,M,-30.6,M,,0000,M,,0000
$GPGGA,210412.000,3648.7019,N,12146.8853,W,2,11,0.4,-2.5,M,-30.6,M,,0000,M,,0000
$GPGGA,210417.000,3648.7023,N,12146.8857,W,2,11,0.4,-2.7,M,-30.6,M,,0000,M,,0000
$GPGGA,210422.000,3648.7027,N,12146.8860,W,2,11,0.4,-2.6,M,-30.6,M,,0000,M,,0000
$GPGGA,210427.000,3648.7032,N,12146.8863,W,2,11,0.4,-2.5,M,-30.6,M,,0000,M,,0000
$GPGGA,210432.000,3648.7036,N,12146.8867,W,2,11,0.4,-2.7,M,-30.6,M,,0000,M,,0000
$GPGGA,210437.000,3648.7041,N,12146.8870,W,2,11,0.4,-2.9,M,-30.6,M,,0000,M,,0000
$GPGGA,210442.000,3648.7046,N,12146.8875,W,2,11,0.4,-3.1,M,-30.6,M,,0000,M,,0000
$GPGGA,210447.000,3648.7054,N,12146.8885,W,2,11,0.4,-3.1,M,-30.6,M,,0000,M,,0000
$GPGGA,210451.000,3648.7060,N,12146.8891,W,2,11,0.4,-3.1,M,-30.6,M,,0000,M,,0000
$GPGGA,210457.000,3648.7068,N,12146.8901,W,2,11,0.4,-3.4,M,-30.6,M,,0000,M,,0000
$GPGGA,210502.000,3648.7075,N,12146.8910,W,2,11,0.4,-3.6,M,-30.6,M,,0000,M,,0000
$GPGGA,210507.000,3648.7081,N,12146.8918,W,2,11,0.4,-3.8,M,-30.6,M,,0000,M,,0000
$GPGGA,210512.000,3648.7086,N,12146.8924,W,2,11,0.4,-3.7,M,-30.6,M,,0000,M,,0000
$GPGGA,210517.000,3648.7091,N,12146.8930,W,2,11,0.4,-3.7,M,-30.6,M,,0000,M,,0000
$GPGGA,210522.000,3648.7096,N,12146.8936,W,2,11,0.4,-3.9,M,-30.6,M,,0000,M,,0000
$GPGGA,210527.000,3648.7100,N,12146.8942,W,2,11,0.4,-4.1,M,-30.6,M,,0000,M,,0000
$GPGGA,210531.000,3648.7104,N,12146.8945,W,2,11,0.4,-4.4,M,-30.6,M,,0000,M,,0000
$GPGGA,210537.000,3648.7108,N,12146.8951,W,2,11,0.4,-4.6,M,-30.6,M,,0000,M,,0000
$GPGGA,210542.000,3648.7112,N,12146.8955,W,2,11,0.4,-4.3,M,-30.6,M,,0000,M,,0000
$GPGGA,210547.000,3648.7115,N,12146.8959,W,2,11,0.4,-4.2,M,-30.6,M,,0000,M,,0000
$GPGGA,210552.000,3648.7119,N,12146.8964,W,2,11,0.4,-4.6,M,-30.6,M,,0000,M,,0000
$GPGGA,210557.000,3648.7123,N,12146.8967,W,2,11,0.4,-4.3,M,-30.6,M,,0000,M,,0000
$GPGGA,210602.000,3648.7127,N,12146.8970,W,2,10,0.5,-4.1,M,-30.6,M,,0000,M,,0000
$GPGGA,210607.000,3648.7130,N,12146.8974,W,2,11,0.4,-3.7,M,-30.6,M,,0000,M,,0000
$GPGGA,210612.000,3648.7134,N,12146.8979,W,2,11,0.4,-4.0,M,-30.6,M,,0000,M,,0000
$GPGGA,210617.000,3648.7136,N,12146.8984,W,2,11,0.4,-4.1,M,-30.6,M,,0000,M,,0000
$GPGGA,210632.000,3648.7145,N,12146.9002,W,2,11,0.4,-4.2,M,-30.6,M,,0000,M,,0000
$GPGGA,210637.000,3648.7147,N,12146.9007,W,2,11,0.4,-4.1,M,-30.6,M,,0000,M,,0000
$GPGGA,210642.000,3648.7150,N,12146.9014,W,2,11,0.5,-4.0,M,-30.6,M,,0000,M,,0000
$GPGGA,210647.000,3648.7153,N,12146.9020,W,2,11,0.4,-3.8,M,-30.6,M,,0000,M,,0000
$GPGGA,210652.000,3648.7156,N,12146.9024,W,2,11,0.4,-3.7,M,-30.6,M,,0000,M,,0000
$GPGGA,210657.000,3648.7158,N,12146.9029,W,2,11,0.4,-4.0,M,-30.6,M,,0000,M,,0000
$GPGGA,210702.000,3648.7161,N,12146.9035,W,2,11,0.4,-4.1,M,-30.6,M,,0000,M,,0000
$GPGGA,210707.000,3648.7164,N,12146.9041,W,2,11,0.4,-4.1,M,-30.6,M,,0000,M,,0000
$GPGGA,210712.000,3648.7168,N,12146.9047,W,2,11,0.4,-4.2,M,-30.6,M,,0000,M,,0000
$GPGGA,210717.000,3648.7171,N,12146.9054,W,2,11,0.4,-4.3,M,-30.6,M,,0000,M,,0000
$GPGGA,210722.000,3648.7173,N,12146.9060,W,2,11,0.4,-4.6,M,-30.6,M,,0000,M,,0000
$GPGGA,210726.000,3648.7176,N,12146.9065,W,2,11,0.4,-4.8,M,-30.6,M,,0000,M,,0000
$GPGGA,210732.000,3648.7179,N,12146.9074,W,2,11,0.5,-4.8,M,-30.6,M,,0000,M,,0000
$GPGGA,210737.000,3648.7182,N,12146.9081,W,2,11,0.4,-4.8,M,-30.6,M,,0000,M,,0000
$GPGGA,210743.000,3648.7186,N,12146.9087,W,2,10,0.5,-5.0,M,-30.6,M,,0000,M,,0000
$GPGGA,210747.000,3648.7188,N,12146.9091,W,2,10,0.5,-5.1,M,-30.6,M,,0000,M,,0000
$GPGGA,210752.000,3648.7191,N,12146.9097,W,2,11,0.4,-5.0,M,-30.6,M,,0000,M,,0000
$GPGGA,210757.000,3648.7194,N,12146.9101,W,2,11,0.4,-4.9,M,-30.6,M,,0000,M,,0000
$GPGGA,210802.000,3648.7198,N,12146.9109,W,2,11,0.4,-4.8,M,-30.6,M,,0000,M,,0000
$GPGGA,210807.000,3648.7201,N,12146.9117,W,2,11,0.4,-4.1,M,-30.6,M,,0000,M,,0000
$GPGGA,210812.000,3648.7204,N,12146.9123,W,2,11,0.4,-3.8,M,-30.6,M,,0000,M,,0000
$GPGGA,210817.000,3648.7209,N,12146.9130,W,2,11,0.4,-3.8,M,-30.6,M,,0000,M,,0000
$GPGGA,210822.000,3648.7213,N,12146.9135,W,2,11,0.4,-3.7,M,-30.6,M,,0000,M,,0000
$GPGGA,210827.000,3648.7217,N,12146.9138,W,2,11,0.4,-3.8,M,-30.6,M,,0000,M,,0000
$GPGGA,210832.000,3648.7220,N,12146.9140,W,2,11,0.4,-4.1,M,-30.6,M,,0000,M,,0000
$GPGGA,210837.000,3648.7224,N,12146.9144,W,2,11,0.4,-4.1,M,-30.6,M,,0000,M,,0000
$GPGGA,210842.000,3648.7227,N,12146.9148,W,2,11,0.4,-3.8,M,-30.6,M,,0000,M,,0000
$GPGGA,210848.000,3648.7229,N,12146.9152,W,2,11,0.4,-3.7,M,-30.6,M,,0000,M,,0000
$GPGGA,210852.000,3648.7230,N,12146.9155,W,2,11,0.4,-3.7,M,-30.6,M,,0000,M,,0000
$GPGGA,210857.000,3648.7233,N,12146.9160,W,2,11,0.4,-3.8,M,-30.6,M,,0000,M,,0000
$GPGGA,210902.000,3648.7236,N,12146.9165,W,2,10,0.5,-3.7,M,-30.6,M,,0000,M,,0000
$GPGGA,210907.000,3648.7238,N,12146.9170,W,2,10,0.5,-3.7,M,-30.6,M,,0000,M,,0000
$GPGGA,210912.000,3648.7241,N,12146.9177,W,2,10,0.5,-3.8,M,-30.6,M,,0000,M,,0000
$GPGGA,210917.000,3648.7244,N,12146.9184,W,2,11,0.4,-4.1,M,-30.6,M,,0000,M,,0000
$GPGGA,210922.000,3648.7247,N,12146.9189,W,2,11,0.5,-4.3,M,-30.6,M,,0000,M,,0000
$GPGGA,210927.000,3648.7250,N,12146.9193,W,2,11,0.5,-4.6,M,-30.6,M,,0000,M,,0000
$GPGGA,210932.000,3648.7253,N,12146.9197,W,2,11,0.5,-4.8,M,-30.6,M,,0000,M,,0000
$GPGGA,210937.000,3648.7256,N,12146.9200,W,2,11,0.5,-4.8,M,-30.6,M,,0000,M,,0000
$GPGGA,210942.000,3648.7258,N,12146.9203,W,2,11,0.4,-5.1,M,-30.6,M,,0000,M,,0000
$GPGGA,210947.000,3648.7261,N,12146.9206,W,2,11,0.5,-4.7,M,-30.6,M,,0000,M,,0000
$GPGGA,210952.000,3648.7263,N,12146.9209,W,2,11,0.4,-4.5,M,-30.6,M,,0000,M,,0000
$GPGGA,210957.000,3648.7265,N,12146.9213,W,2,11,0.4,-4.5,M,-30.6,M,,0000,M,,0000
$GPGGA,211002.000,3648.7268,N,12146.9218,W,2,11,0.4,-4.6,M,-30.6,M,,0000,M,,0000
$GPGGA,211007.000,3648.7270,N,12146.9222,W,2,11,0.4,-4.6,M,-30.6,M,,0000,M,,0000
$GPGGA,211012.000,3648.7271,N,12146.9227,W,2,11,0.4,-4.5,M,-30.6,M,,0000,M,,0000
$GPGGA,211017.000,3648.7274,N,12146.9232,W,2,11,0.4,-4.6,M,-30.6,M,,0000,M,,0000
$GPGGA,211022.000,3648.7278,N,12146.9238,W,2,11,0.5,-4.4,M,-30.6,M,,0000,M,,0000
$GPGGA,211027.000,3648.7281,N,12146.9243,W,2,11,0.5,-4.4,M,-30.6,M,,0000,M,,0000
$GPGGA,211032.000,3648.7285,N,12146.9247,W,2,11,0.5,-4.6,M,-30.6,M,,0000,M,,0000
$GPGGA,211037.000,3648.7289,N,12146.9253,W,2,11,0.5,-4.9,M,-30.6,M,,0000,M,,0000
$GPGGA,211042.000,3648.7292,N,12146.9258,W,2,11,0.5,-5.1,M,-30.6,M,,0000,M,,0000
$GPGGA,211047.000,3648.7295,N,12146.9262,W,2,11,0.5,-5.0,M,-30.6,M,,0000,M,,0000
$GPGGA,211052.000,3648.7299,N,12146.9268,W,2,11,0.5,-5.3,M,-30.6,M,,0000,M,,0000
$GPGGA,211057.000,3648.7302,N,12146.9272,W,2,11,0.5,-5.3,M,-30.6,M,,0000,M,,0000
$GPGGA,211102.000,3648.7306,N,12146.9277,W,2,11,0.5,-5.2,M,-30.6,M,,0000,M,,0000
$GPGGA,211107.000,3648.7311,N,12146.9282,W,2,11,0.5,-5.4,M,-30.6,M,,0000,M,,0000
$GPGGA,211112.000,3648.7316,N,12146.9287,W,2,11,0.5,-5.4,M,-30.6,M,,0000,M,,0000
$GPGGA,211117.000,3648.7323,N,12146.9296,W,2,11,0.5,-5.5,M,-30.6,M,,0000,M,,0000
$GPGGA,211122.000,3648.7329,N,12146.9303,W,2,10,0.5,-5.6,M,-30.6,M,,0000,M,,0000
$GPGGA,211127.000,3648.7334,N,12146.9309,W,2,11,0.5,-5.7,M,-30.6,M,,0000,M,,0000
$GPGGA,211132.000,3648.7339,N,12146.9315,W,2,11,0.5,-5.7,M,-30.6,M,,0000,M,,0000
$GPGGA,211137.000,3648.7343,N,12146.9319,W,2,11,0.5,-5.7,M,-30.6,M,,0000,M,,0000
$GPGGA,211142.000,3648.7346,N,12146.9322,W,2,11,0.5,-5.7,M,-30.6,M,,0000,M,,0000
$GPGGA,211147.000,3648.7349,N,12146.9324,W,2,11,0.5,-5.6,M,-30.6,M,,0000,M,,0000
$GPGGA,211152.000,3648.7351,N,12146.9326,W,2,11,0.5,-5.6,M,-30.6,M,,0000,M,,0000
$GPGGA,211157.000,3648.7354,N,12146.9327,W,2,11,0.5,-5.5,M,-30.6,M,,0000,M,,0000
$GPGGA,211202.000,3648.7356,N,12146.9329,W,2,11,0.5,-5.3,M,-30.6,M,,0000,M,,0000
$GPGGA,211207.000,3648.7359,N,12146.9333,W,2,11,0.5,-5.3,M,-30.6,M,,0000,M,,0000
$GPGGA,211212.000,3648.7363,N,12146.9337,W,2,11,0.5,-5.4,M,-30.6,M,,0000,M,,0000
